[
    {
        "type": "node",
        "id": 279245940,
        "lat": 44.7946229,
        "lon": -0.6199622,
        "tags": {
            "amenity": "restaurant",
            "name": "Cafétéria Universitaire Le Veracruz",
            "wheelchair": "yes"
        }
    },
    {
        "type": "node",
        "id": 279246491,
        "lat": 44.7957091,
        "lon": -0.6159515,
        "tags": {
            "amenity": "restaurant",
            "name": "Cafétéria Universitaire Le Sirtaki",
            "opening_hours": "Mo-Th 07:30-18:00, Fr 07:30-17:30",
            "takeaway": "no"
        }
    },
    {
        "type": "node",
        "id": 317941817,
        "lat": 44.8276230,
        "lon": -0.5855196,
        "tags": {
            "amenity": "fast food",
            "cuisine": "pizza",
            "name": "Aux P'tits Délices"
        }
    },
    {
        "type": "node",
        "id": 344629984,
        "lat": 44.8355673,
        "lon": -0.6771122,
        "tags": {
            "amenity": "restaurant",
            "created_by": "Potlatch 0.10f",
            "name": "Buffalo Grill"
        }
    },
    {
        "type": "node",
        "id": 352964326,
        "lat": 44.7971389,
        "lon": -0.5286241,
        "tags": {
            "amenity": "restaurant",
            "cuisine": "seafood",
            "name": "Le Merci"
        }
    },
    {
        "type": "node",
        "id": 352975712,
        "lat": 44.8313255,
        "lon": -0.6781898,
        "tags": {
            "amenity": "restaurant",
            "brand": "Courtepaille",
            "brand:website": "http://www.courtepaille.com",
            "brand:wikidata": "Q3116688",
            "brand:wikipedia": "fr:Grill Courtepaille",
            "cuisine": "steak_house",
            "name": "Courtepaille",
            "opening_hours": "Mo-Su 11:30-23:00"
        }
    },
    {
        "type": "node",
        "id": 401569943,
        "lat": 44.8072386,
        "lon": -0.5860518,
        "tags": {
            "amenity": "restaurant"
        }
    },
    {
        "type": "node",
        "id": 401786576,
        "lat": 44.8123033,
        "lon": -0.5901944,
        "tags": {
            "amenity": "restaurant",
            "cuisine": "american",
            "name": "Edwood Cafe",
            "wheelchair": "yes"
        }
    },
    {
        "type": "node",
        "id": 409132559,
        "lat": 44.7958238,
        "lon": -0.6677679,
        "tags": {
            "amenity": "fast food",
            "cuisine": "pizza",
            "name": "Royal Pizz'"
        }
    },
    {
        "type": "node",
        "id": 444755898,
        "lat": 44.8559651,
        "lon": -0.5671860,
        "tags": {
            "amenity": "restaurant",
            "name": "Chai d'Art"
        }
    },
    {
        "type": "node",
        "id": 445855212,
        "lat": 44.8543334,
        "lon": -0.5721093,
        "tags": {
            "amenity": "fast food",
            "contact:city": "Bordeaux",
            "contact:housenumber": "62",
            "contact:postcode": "33300",
            "contact:street": "Cours Portal",
            "cuisine": "burger",
            "name": "Mythic Burger"
        }
    },
    {
        "type": "node",
        "id": 445864839,
        "lat": 44.8528064,
        "lon": -0.5679579,
        "tags": {
            "amenity": "restaurant",
            "contact:phone": "+33557876082",
            "contact:website": "http://www.bistrotchartrons.fr",
            "cuisine": "regional",
            "name": "Bistrot Chartrons"
        }
    },
    {
        "type": "node",
        "id": 446355810,
        "lat": 44.8488384,
        "lon": -0.5708629,
        "tags": {
            "amenity": "restaurant",
            "name": "Le K Baroque",
            "wheelchair": "yes"
        }
    },
    {
        "type": "node",
        "id": 446355820,
        "lat": 44.8525925,
        "lon": -0.5681614,
        "tags": {
            "amenity": "restaurant",
            "name": "Casa Latina",
            "wheelchair": "limited"
        }
    },
    {
        "type": "node",
        "id": 447976441,
        "lat": 44.8440041,
        "lon": -0.5708803,
        "tags": {
            "amenity": "restaurant",
            "name": "La Belle Époque"
        }
    },
    {
        "type": "node",
        "id": 500351274,
        "lat": 44.8358136,
        "lon": -0.5699806,
        "tags": {
            "amenity": "restaurant",
            "cuisine": "crepe",
            "name": "Au Teulère de Brest"
        }
    },
    {
        "type": "node",
        "id": 546886836,
        "lat": 44.8268155,
        "lon": -0.5567874,
        "tags": {
            "addr:city": "Bordeaux",
            "addr:housenumber": "25",
            "addr:postcode": "33000",
            "addr:street": "Rue Charles Domercq",
            "amenity": "restaurant",
            "name": "Café du Levant"
        }
    },
    {
        "type": "node",
        "id": 546886845,
        "lat": 44.8258753,
        "lon": -0.5566898,
        "tags": {
            "amenity": "fast food",
            "cuisine": "french",
            "diet:vegan": "no",
            "diet:vegetarian": "yes",
            "name": "Paul",
            "shop": "bakery",
            "wheelchair": "yes"
        }
    },
    {
        "type": "node",
        "id": 560726058,
        "lat": 44.8316340,
        "lon": -0.5661520,
        "tags": {
            "amenity": "restaurant",
            "name": "L'Abrénat"
        }
    },
    {
        "type": "node",
        "id": 560726068,
        "lat": 44.8300426,
        "lon": -0.5660621,
        "tags": {
            "amenity": "restaurant",
            "name": "Restaurant Universitaire Le Cap'U",
            "operator": "CROUS",
            "wheelchair": "yes"
        }
    },
    {
        "type": "node",
        "id": 563901371,
        "lat": 44.8427760,
        "lon": -0.5547689,
        "tags": {
            "amenity": "fast food",
            "name": "Quick"
        }
    },
    {
        "type": "node",
        "id": 563901413,
        "lat": 44.8421130,
        "lon": -0.5577900,
        "tags": {
            "amenity": "fast food",
            "cuisine": "burger",
            "drive_through": "yes",
            "name": "McDonald's",
            "operator": "McDonald's",
            "takeaway": "yes"
        }
    },
    {
        "type": "node",
        "id": 568265888,
        "lat": 44.8419571,
        "lon": -0.5790820,
        "tags": {
            "amenity": "fast food",
            "name": "Quick"
        }
    },
    {
        "type": "node",
        "id": 568265889,
        "lat": 44.8410609,
        "lon": -0.5744708,
        "tags": {
            "amenity": "fast food",
            "cuisine": "burger",
            "name": "McDonald's"
        }
    },
    {
        "type": "node",
        "id": 568265890,
        "lat": 44.8312676,
        "lon": -0.5724249,
        "tags": {
            "amenity": "fast food",
            "cuisine": "burger",
            "name": "McDonald's"
        }
    },
    {
        "type": "node",
        "id": 573424129,
        "lat": 44.8433593,
        "lon": -0.5708198,
        "tags": {
            "amenity": "restaurant",
            "name": "Jean Ramet"
        }
    },
    {
        "type": "node",
        "id": 582008704,
        "lat": 44.7979669,
        "lon": -0.6200801,
        "tags": {
            "amenity": "restaurant",
            "name": "La Cafét' Chez Marcel"
        }
    },
    {
        "type": "node",
        "id": 603773613,
        "lat": 44.8428684,
        "lon": -0.5781314,
        "tags": {
            "amenity": "restaurant",
            "craft": "winery",
            "name": "Le Chapon Fin",
            "ref:FR:CRTA": "DEGAQU033V5053H1",
            "source": "Réseau SIRTAQUI - Comité Régional de Tourisme d'Aquitaine - www.sirtaqui-aquitaine.com - 06/2016",
            "website": "http://www.chapon-fin.com/fr/node/278"
        }
    },
    {
        "type": "node",
        "id": 610596074,
        "lat": 44.8360999,
        "lon": -0.5768495,
        "tags": {
            "amenity": "restaurant",
            "name": "Le Liban"
        }
    },
    {
        "type": "node",
        "id": 612257738,
        "lat": 44.7914396,
        "lon": -0.6122025,
        "tags": {
            "amenity": "fast food",
            "name": "Cafeteria",
            "opening_hours": "Mo-Th 08:00-16:15, Fr 08:00-15:30",
            "source": "cadastre-dgi-fr source : Direction Générale des Impôts - Cadastre. Mise à jour : 2010",
            "wheelchair": "yes"
        }
    },
    {
        "type": "node",
        "id": 623889684,
        "lat": 44.8307267,
        "lon": -0.5735234,
        "tags": {
            "amenity": "restaurant",
            "cuisine": "international",
            "name": "Le Plana"
        }
    },
    {
        "type": "node",
        "id": 644599283,
        "lat": 44.8321992,
        "lon": -0.5722203,
        "tags": {
            "amenity": "restaurant",
            "name": "Le Candale"
        }
    },
    {
        "type": "node",
        "id": 671742172,
        "lat": 44.8593155,
        "lon": -0.5832679,
        "tags": {
            "amenity": "fast food"
        }
    },
    {
        "type": "node",
        "id": 686670644,
        "lat": 44.8414283,
        "lon": -0.5751740,
        "tags": {
            "amenity": "restaurant",
            "name": "Chez Alex"
        }
    },
    {
        "type": "node",
        "id": 694544539,
        "lat": 44.8869049,
        "lon": -0.5512758,
        "tags": {
            "amenity": "restaurant",
            "cuisine": "french",
            "name": "Les 3 cardinaux"
        }
    },
    {
        "type": "node",
        "id": 731864914,
        "lat": 44.8098794,
        "lon": -0.5974932,
        "tags": {
            "amenity": "restaurant",
            "cuisine": "french",
            "name": "Restaurant Universitaire Le Haut-Carré",
            "wheelchair": "yes"
        }
    },
    {
        "type": "node",
        "id": 779147649,
        "lat": 44.8517836,
        "lon": -0.6447634,
        "tags": {
            "amenity": "restaurant",
            "name": "Le Six"
        }
    },
    {
        "type": "node",
        "id": 794218904,
        "lat": 44.7809304,
        "lon": -0.6463031,
        "tags": {
            "amenity": "restaurant",
            "cuisine": "french",
            "name": "Château Bersol"
        }
    },
    {
        "type": "node",
        "id": 813984459,
        "lat": 44.8108747,
        "lon": -0.5062359,
        "tags": {
            "amenity": "restaurant",
            "name": "L'Auberge du Marais"
        }
    },
    {
        "type": "node",
        "id": 864586661,
        "lat": 44.8416179,
        "lon": -0.5620739,
        "tags": {
            "addr:city": "Bordeaux",
            "addr:postcode": "33100",
            "addr:street": "Cinéma Mégarama",
            "addr:street_1": "7 Quai des queyries",
            "amenity": "restaurant",
            "contact:email": "bordeaux-megarama@delarte.fr",
            "contact:fax": "+33 5 56 40 91 68",
            "contact:phone": "+33 5 56 40 86 21",
            "cuisine": "italian",
            "name": "Ristorante Del Arte",
            "source": "survey",
            "wheelchair": "yes"
        }
    },
    {
        "type": "node",
        "id": 914304735,
        "lat": 44.8196553,
        "lon": -0.5978268,
        "tags": {
            "amenity": "restaurant"
        }
    },
    {
        "type": "node",
        "id": 928001097,
        "lat": 44.8260126,
        "lon": -0.5564038,
        "tags": {
            "amenity": "fast food",
            "cuisine": "sandwich"
        }
    },
    {
        "type": "node",
        "id": 930762038,
        "lat": 44.8377110,
        "lon": -0.5672736,
        "tags": {
            "amenity": "restaurant",
            "cuisine": "pizza",
            "name": "Pizza Luna"
        }
    },
    {
        "type": "node",
        "id": 1030614214,
        "lat": 44.8325123,
        "lon": -0.5716049,
        "tags": {
            "amenity": "restaurant",
            "cuisine": "asian",
            "name": "From Beijing to Tokyo"
        }
    },
    {
        "type": "node",
        "id": 1033189392,
        "lat": 44.8341652,
        "lon": -0.5665991,
        "tags": {
            "amenity": "restaurant",
            "cuisine": "spanish",
            "name": "Meson la Venta",
            "outdoor_seating": "yes"
        }
    },
    {
        "type": "node",
        "id": 1033189395,
        "lat": 44.8348148,
        "lon": -0.5660989,
        "tags": {
            "addr:city": "Bordeaux",
            "addr:housenumber": "39",
            "addr:postcode": "33000",
            "addr:street": "Rue des Faures",
            "amenity": "restaurant",
            "amenity_1": "bar",
            "delivery": "no",
            "name": "Bar tabac Saint-Michel",
            "outdoor_seating": "terrace",
            "phone": "+33 5 56 94 21 29",
            "shop": "tobacco",
            "smoking": "outside",
            "takeaway": "no"
        }
    },
    {
        "type": "node",
        "id": 1129411972,
        "lat": 44.8181757,
        "lon": -0.5850654,
        "tags": {
            "addr:housenumber": "93",
            "addr:street": "cours Gambetta",
            "amenity": "restaurant",
            "cuisine": "korean",
            "name": "Haru Haru",
            "opening_hours": "Mo-Sa 12:00-14:30, 19:00-22:30",
            "phone": "+33 5 33 57 62 34",
            "takeaway": "yes",
            "website": "http://haruharu.fr"
        }
    },
    {
        "type": "node",
        "id": 1166981923,
        "lat": 44.8371092,
        "lon": -0.5715521,
        "tags": {
            "amenity": "restaurant",
            "cuisine": "thai",
            "name": "Le Santosha",
            "wheelchair": "yes"
        }
    },
    {
        "type": "node",
        "id": 1194704658,
        "lat": 44.8888831,
        "lon": -0.6377013,
        "tags": {
            "amenity": "restaurant",
            "name": "La Clé des Châteaux"
        }
    },
    {
        "type": "node",
        "id": 1199320105,
        "lat": 44.8143497,
        "lon": -0.5042345,
        "tags": {
            "amenity": "restaurant",
            "name": "Le Saint-James"
        }
    },
    {
        "type": "node",
        "id": 1199320145,
        "lat": 44.8135807,
        "lon": -0.5032354,
        "tags": {
            "amenity": "restaurant",
            "contact:website": "http://www.saintjames-bouliac.com/fr/presentation-cafe-bordeaux",
            "cuisine": "french",
            "name": "Café de l'Espérance",
            "opening_hours": "Mo-Su 12:00-14:15,19:30-22:15",
            "outdoor_seating": "yes",
            "takeaway": "yes"
        }
    },
    {
        "type": "node",
        "id": 1218862488,
        "lat": 44.8269627,
        "lon": -0.5688644,
        "tags": {
            "addr:housenumber": "72",
            "addr:postcode": "33800",
            "addr:street": "Rue Lafontaine",
            "amenity": "restaurant",
            "name": "Casa Soto",
            "phone": "+33 5 56 91 23 70",
            "wheelchair": "limited"
        }
    },
    {
        "type": "node",
        "id": 1224635404,
        "lat": 44.8025732,
        "lon": -0.6456737,
        "tags": {
            "amenity": "restaurant",
            "name": "Les Associés"
        }
    },
    {
        "type": "node",
        "id": 1228560248,
        "lat": 44.8401324,
        "lon": -0.5705691,
        "tags": {
            "addr:housenumber": "7",
            "addr:postcode": "33000",
            "addr:street": "Place Saint-Pierre",
            "amenity": "restaurant",
            "name": "La Terrasse Saint-Pierre",
            "wheelchair": "no"
        }
    },
    {
        "type": "node",
        "id": 1228567701,
        "lat": 44.8400970,
        "lon": -0.5704520,
        "tags": {
            "amenity": "restaurant",
            "name": "La talenquère",
            "wheelchair": "no"
        }
    },
    {
        "type": "node",
        "id": 1235216346,
        "lat": 44.8277307,
        "lon": -0.5522137,
        "tags": {
            "addr:housenumber": "58-59",
            "addr:postcode": "33800",
            "addr:street": "Quai de Paludate",
            "alt_name": "Port de la Lune",
            "amenity": "restaurant",
            "cuisine": "french",
            "name": "Comptoir du Jazz"
        }
    },
    {
        "type": "node",
        "id": 1241208112,
        "lat": 44.7853241,
        "lon": -0.6396268,
        "tags": {
            "amenity": "restaurant",
            "name": "Casino Cafétéria"
        }
    },
    {
        "type": "node",
        "id": 1246744089,
        "lat": 44.8444573,
        "lon": -0.5897270,
        "tags": {
            "addr:housenumber": "19",
            "addr:postcode": "33000",
            "addr:street": "Rue de la Croix-Blanche",
            "amenity": "fast food",
            "cuisine": "pizza",
            "name": "Chez Chris et Hélène"
        }
    },
    {
        "type": "node",
        "id": 1345282196,
        "lat": 44.8388750,
        "lon": -0.5737590,
        "tags": {
            "amenity": "fast food",
            "cuisine": "kebab"
        }
    },
    {
        "type": "node",
        "id": 1345283623,
        "lat": 44.8395920,
        "lon": -0.5705993,
        "tags": {
            "amenity": "fast food",
            "cuisine": "kebab",
            "name": "Cappadoce"
        }
    },
    {
        "type": "node",
        "id": 1345283871,
        "lat": 44.8394264,
        "lon": -0.5704967,
        "tags": {
            "amenity": "fast food",
            "cuisine": "oriental",
            "name": "Cilicie"
        }
    },
    {
        "type": "node",
        "id": 1345283913,
        "lat": 44.8407550,
        "lon": -0.5798154,
        "tags": {
            "amenity": "fast food",
            "cuisine": "sandwich",
            "name": "Subway"
        }
    },
    {
        "type": "node",
        "id": 1373688875,
        "lat": 44.8513928,
        "lon": -0.5737888,
        "tags": {
            "amenity": "restaurant",
            "name": "Gravelliers"
        }
    },
    {
        "type": "node",
        "id": 1428378627,
        "lat": 44.8409140,
        "lon": -0.5719780,
        "tags": {
            "amenity": "restaurant",
            "cuisine": "french",
            "name": "Chez Edouard"
        }
    },
    {
        "type": "node",
        "id": 1430131528,
        "lat": 44.8575919,
        "lon": -0.6599205,
        "tags": {
            "amenity": "restaurant",
            "name": "Brasserie Le 127 - Restaurant Libertin"
        }
    },
    {
        "type": "node",
        "id": 1484524772,
        "lat": 44.8389110,
        "lon": -0.5731379,
        "tags": {
            "amenity": "restaurant",
            "cuisine": "japanese",
            "name": "Café Japonais",
            "phone": "+33556486868",
            "website": "http://cafejaponais.free.fr/"
        }
    },
    {
        "type": "node",
        "id": 1517672933,
        "lat": 44.8613220,
        "lon": -0.6418977,
        "tags": {
            "amenity": "fast food",
            "cuisine": "pizza",
            "name": "Pizza Prompto"
        }
    },
    {
        "type": "node",
        "id": 1532982651,
        "lat": 44.8400004,
        "lon": -0.5591767,
        "tags": {
            "addr:housenumber": "11",
            "addr:street": "Place Stalingrad",
            "amenity": "restaurant",
            "cuisine": "french",
            "name": "Bistrot Régent - Alcazar",
            "opening_hours": "Mo-Su 11:45-14:30, Su-We 18:45-22:45, Th 18:45-23:00, Fr,Sa 18:45-23:15",
            "source": "survey"
        }
    },
    {
        "type": "node",
        "id": 1607920900,
        "lat": 44.8446818,
        "lon": -0.5789182,
        "tags": {
            "addr:housename": "Le Pacifique",
            "addr:housenumber": "10",
            "addr:postcode": "33000",
            "addr:street": "Rue Huguerie",
            "amenity": "restaurant",
            "cuisine": "chinese",
            "name": "Le Pacifique"
        }
    },
    {
        "type": "node",
        "id": 1723380919,
        "lat": 44.8275846,
        "lon": -0.5687995,
        "tags": {
            "amenity": "restaurant"
        }
    },
    {
        "type": "node",
        "id": 1723383132,
        "lat": 44.8277059,
        "lon": -0.5687472,
        "tags": {
            "amenity": "restaurant"
        }
    },
    {
        "type": "node",
        "id": 1723383208,
        "lat": 44.8278248,
        "lon": -0.5687029,
        "tags": {
            "amenity": "restaurant"
        }
    },
    {
        "type": "node",
        "id": 1723401071,
        "lat": 44.8288018,
        "lon": -0.5683027,
        "tags": {
            "amenity": "fast food",
            "name": "Le Class'Dal"
        }
    },
    {
        "type": "node",
        "id": 1723401074,
        "lat": 44.8287469,
        "lon": -0.5683231,
        "tags": {
            "amenity": "restaurant",
            "cuisine": "regional",
            "name": "La Référence"
        }
    },
    {
        "type": "node",
        "id": 1723404780,
        "lat": 44.8286773,
        "lon": -0.5686577,
        "tags": {
            "amenity": "restaurant",
            "cuisine": "regional"
        }
    },
    {
        "type": "node",
        "id": 1731116814,
        "lat": 44.8349650,
        "lon": -0.5663083,
        "tags": {
            "amenity": "restaurant",
            "name": "Chat Noir Cha Vert Resto BIO",
            "opening_hours": "Mo-Su 09:00-23:00",
            "phone": "+33 5 57 95 93 32",
            "website": "https://www.facebook.com/pages/Chat-Noir-Cha-Vert/141299879317260"
        }
    },
    {
        "type": "node",
        "id": 1741692437,
        "lat": 44.8419694,
        "lon": -0.5746062,
        "tags": {
            "amenity": "fast food",
            "name": "La Brioche Dorée",
            "takeaway": "only"
        }
    },
    {
        "type": "node",
        "id": 1752258761,
        "lat": 44.8289643,
        "lon": -0.5685334,
        "tags": {
            "amenity": "fast food",
            "name": "Le Wouri"
        }
    },
    {
        "type": "node",
        "id": 1752258879,
        "lat": 44.8290862,
        "lon": -0.5684805,
        "tags": {
            "amenity": "restaurant",
            "name": "Le Binam"
        }
    },
    {
        "type": "node",
        "id": 1752258898,
        "lat": 44.8291283,
        "lon": -0.5684589,
        "tags": {
            "amenity": "fast food",
            "cuisine": "spanish",
            "name": "Grand Délice"
        }
    },
    {
        "type": "node",
        "id": 1752263844,
        "lat": 44.8293754,
        "lon": -0.5680513,
        "tags": {
            "amenity": "fast food",
            "name": "El Malouf",
            "wheelchair": "limited"
        }
    },
    {
        "type": "node",
        "id": 1752264964,
        "lat": 44.8292292,
        "lon": -0.5684187,
        "tags": {
            "amenity": "fast food",
            "cuisine": "regional",
            "name": "Le Girondin"
        }
    },
    {
        "type": "node",
        "id": 1752264971,
        "lat": 44.8292803,
        "lon": -0.5683941,
        "tags": {
            "amenity": "fast food",
            "name": "Haadurh Fried Chicken"
        }
    },
    {
        "type": "node",
        "id": 1752266246,
        "lat": 44.8294384,
        "lon": -0.5683373,
        "tags": {
            "amenity": "fast food",
            "cuisine": "pizza",
            "name": "La Boîte à Pizza"
        }
    },
    {
        "type": "node",
        "id": 1754966931,
        "lat": 44.8195144,
        "lon": -0.5724793,
        "tags": {
            "amenity": "restaurant",
            "name": "Brasserie du Sud-Ouest"
        }
    },
    {
        "type": "node",
        "id": 1754966935,
        "lat": 44.8213831,
        "lon": -0.5825723,
        "tags": {
            "amenity": "fast food",
            "cuisine": "asian",
            "name": "Kong Delices",
            "takeaway": "only"
        }
    },
    {
        "type": "node",
        "id": 1754966936,
        "lat": 44.8215490,
        "lon": -0.5828194,
        "tags": {
            "amenity": "fast food",
            "cuisine": "pizza",
            "name": "Domino's Pizza",
            "takeaway": "only"
        }
    },
    {
        "type": "node",
        "id": 1754966940,
        "lat": 44.8245307,
        "lon": -0.5786055,
        "tags": {
            "amenity": "fast food",
            "cuisine": "kebab",
            "name": "Snack Bergonier",
            "takeaway": "yes"
        }
    },
    {
        "type": "node",
        "id": 1754966942,
        "lat": 44.8217896,
        "lon": -0.5827056,
        "tags": {
            "amenity": "restaurant",
            "cuisine": "pizza",
            "name": "Pizza Saint-Genès",
            "takeaway": "only"
        }
    },
    {
        "type": "node",
        "id": 1788714454,
        "lat": 44.8417475,
        "lon": -0.6662366,
        "tags": {
            "amenity": "restaurant",
            "cuisine": "french",
            "name": "Le Tholosa"
        }
    },
    {
        "type": "node",
        "id": 1819938405,
        "lat": 44.8135874,
        "lon": -0.5525090,
        "tags": {
            "amenity": "restaurant",
            "cuisine": "italian",
            "name": "Le Fellini",
            "takeaway": "yes"
        }
    },
    {
        "type": "node",
        "id": 1819938407,
        "lat": 44.8131364,
        "lon": -0.5526698,
        "tags": {
            "amenity": "restaurant",
            "name": "BT 59"
        }
    },
    {
        "type": "node",
        "id": 1821078822,
        "lat": 44.8313415,
        "lon": -0.5721368,
        "tags": {
            "amenity": "restaurant",
            "name": "Grand Cafe de la Faculté",
            "wheelchair": "yes"
        }
    },
    {
        "type": "node",
        "id": 1869865230,
        "lat": 44.8319438,
        "lon": -0.6543018,
        "tags": {
            "amenity": "fast food",
            "name": "Nooï"
        }
    },
    {
        "type": "node",
        "id": 1869865231,
        "lat": 44.8287176,
        "lon": -0.6591190,
        "tags": {
            "amenity": "restaurant",
            "cuisine": "pizza",
            "name": "Villa Toscane"
        }
    },
    {
        "type": "node",
        "id": 1869865233,
        "lat": 44.8327845,
        "lon": -0.6516571,
        "tags": {
            "amenity": "restaurant",
            "cuisine": "french",
            "name": "Barbeque"
        }
    },
    {
        "type": "node",
        "id": 1869865235,
        "lat": 44.8327351,
        "lon": -0.6521345,
        "tags": {
            "amenity": "restaurant",
            "cuisine": "chinese",
            "name": "Pagoda"
        }
    },
    {
        "type": "node",
        "id": 1870051417,
        "lat": 44.8298972,
        "lon": -0.6613248,
        "tags": {
            "addr:city": "Mérignac",
            "addr:housenumber": "85",
            "addr:postcode": "33700",
            "addr:street": "Avenue de la Somme",
            "amenity": "restaurant",
            "cuisine": "vietnamese",
            "name": "Pho Saigon",
            "opening_hours": "Mo-We 11:45-14:30; Th-Sa 11:45-14:30,19:00-22:00",
            "phone": "+33 5 56 34 41 10",
            "website": "http://phosaigon.jimdo.com/"
        }
    },
    {
        "type": "node",
        "id": 1875974674,
        "lat": 44.8507809,
        "lon": -0.6459049,
        "tags": {
            "addr:street": "Rue Maubec",
            "amenity": "restaurant",
            "cuisine": "french",
            "name": "L'Appart"
        }
    },
    {
        "type": "node",
        "id": 1875978925,
        "lat": 44.8299693,
        "lon": -0.6651031,
        "tags": {
            "amenity": "restaurant",
            "cuisine": "asian",
            "name": "Le Shanghai Gourmet"
        }
    },
    {
        "type": "node",
        "id": 1875992490,
        "lat": 44.8291991,
        "lon": -0.6643974,
        "tags": {
            "amenity": "restaurant",
            "cuisine": "french",
            "name": "Le Relais d'Antan"
        }
    },
    {
        "type": "node",
        "id": 1876017962,
        "lat": 44.8245738,
        "lon": -0.6242183,
        "tags": {
            "amenity": "restaurant",
            "cuisine": "pizza",
            "name": "Pizz'Arlac"
        }
    },
    {
        "type": "node",
        "id": 1876027558,
        "lat": 44.8571555,
        "lon": -0.6673512,
        "tags": {
            "addr:housenumber": "35",
            "addr:street": "Avenue Gustave Eiifel",
            "amenity": "restaurant",
            "name": "Au goût du jour",
            "website": "www.restaurantaugoutdujour.fr"
        }
    },
    {
        "type": "node",
        "id": 1876046296,
        "lat": 44.8424794,
        "lon": -0.6462712,
        "tags": {
            "amenity": "restaurant",
            "cuisine": "pizza",
            "name": "Mario's Pizza"
        }
    },
    {
        "type": "node",
        "id": 1877608623,
        "lat": 44.8593719,
        "lon": -0.6526721,
        "tags": {
            "addr:housenumber": "27",
            "addr:street": "Rue d'Eysines",
            "amenity": "restaurant",
            "cuisine": "french",
            "name": "au Chat qui Pète"
        }
    },
    {
        "type": "node",
        "id": 1877681787,
        "lat": 44.8160535,
        "lon": -0.6586907,
        "tags": {
            "addr:city": "Mérignac",
            "addr:country": "FR",
            "addr:housename": "Le Rendez vous des Chasseurs",
            "addr:housenumber": "1",
            "addr:postcode": "33700",
            "addr:street": "Avenue du Rouquet",
            "amenity": "restaurant",
            "cuisine": "french",
            "name": "Le Rendez vous des Chasseurs",
            "phone": "+33 5 56 07 33 22"
        }
    },
    {
        "type": "node",
        "id": 1877724326,
        "lat": 44.8413503,
        "lon": -0.6674187,
        "tags": {
            "addr:housenumber": "1",
            "addr:street": "Avenue Henri Vigneau",
            "amenity": "restaurant",
            "cuisine": "french",
            "name": "chez Fred"
        }
    },
    {
        "type": "node",
        "id": 1879058668,
        "lat": 44.8462051,
        "lon": -0.6337049,
        "tags": {
            "addr:housename": "Le Fils du Boucher",
            "addr:housenumber": "1",
            "addr:street": "Avenue de Bourranville",
            "amenity": "restaurant",
            "cuisine": "french",
            "name": "Le Fils du Boucher",
            "opening_hours": "Mo-Sa 08:30-15:00,16:00-20:00"
        }
    },
    {
        "type": "node",
        "id": 1879065362,
        "lat": 44.8272891,
        "lon": -0.6643808,
        "tags": {
            "amenity": "restaurant",
            "cuisine": "french",
            "name": "L'Eveil"
        }
    },
    {
        "type": "node",
        "id": 1879192410,
        "lat": 44.8634117,
        "lon": -0.5556859,
        "tags": {
            "amenity": "restaurant",
            "name": "Café Maritime"
        }
    },
    {
        "type": "node",
        "id": 1879303108,
        "lat": 44.8381871,
        "lon": -0.6110748,
        "tags": {
            "amenity": "restaurant",
            "cuisine": "french",
            "name": "La Bouillabaisse"
        }
    },
    {
        "type": "node",
        "id": 1879317420,
        "lat": 44.8418884,
        "lon": -0.6678626,
        "tags": {
            "amenity": "restaurant",
            "cuisine": "french",
            "name": "La Devèze"
        }
    },
    {
        "type": "node",
        "id": 1879317424,
        "lat": 44.8418884,
        "lon": -0.6678572,
        "tags": {
            "amenity": "restaurant"
        }
    },
    {
        "type": "node",
        "id": 1879334867,
        "lat": 44.8286582,
        "lon": -0.6651432,
        "tags": {
            "addr:city": "Mérignac",
            "addr:housenumber": "122",
            "addr:postcode": "33700",
            "addr:street": "Avenue de la Somme",
            "amenity": "restaurant",
            "cuisine": "pizza",
            "name": "L'Escale à Pizza",
            "opening_hours": "Mo,Tu 10:00-14:15; We-Sa 10:00-14:15,18:00-22:00",
            "phone": "+33 5 56 47 73 85",
            "website": "http://www.restaurant-lescale-pizzas.fr/"
        }
    },
    {
        "type": "node",
        "id": 1879346324,
        "lat": 44.8344028,
        "lon": -0.6369849,
        "tags": {
            "amenity": "restaurant",
            "cuisine": "italian",
            "name": "Le Risotto"
        }
    },
    {
        "type": "node",
        "id": 1879621336,
        "lat": 44.8388637,
        "lon": -0.5816466,
        "tags": {
            "amenity": "restaurant",
            "cuisine": "pizza",
            "name": "L'Épicure"
        }
    },
    {
        "type": "node",
        "id": 1879627852,
        "lat": 44.8394409,
        "lon": -0.5813078,
        "tags": {
            "amenity": "restaurant",
            "cuisine": "international",
            "name": "Le Carioca"
        }
    },
    {
        "type": "node",
        "id": 1879630328,
        "lat": 44.8396235,
        "lon": -0.5812023,
        "tags": {
            "amenity": "restaurant",
            "cuisine": "sushi",
            "name": "Sushi Shop"
        }
    },
    {
        "type": "node",
        "id": 1879677981,
        "lat": 44.8432713,
        "lon": -0.5742017,
        "tags": {
            "amenity": "restaurant",
            "cuisine": "french",
            "name": "L'Entrecôte"
        }
    },
    {
        "type": "node",
        "id": 1879700558,
        "lat": 44.8390301,
        "lon": -0.5713676,
        "tags": {
            "addr:postcode": "33000",
            "amenity": "restaurant",
            "cuisine": "pizza",
            "name": "Masaniello",
            "website": "http://www.pizzeriamasaniello.com/"
        }
    },
    {
        "type": "node",
        "id": 1879709919,
        "lat": 44.8299272,
        "lon": -0.5676309,
        "tags": {
            "amenity": "restaurant",
            "cuisine": "regional",
            "name": "Le Bistrot des Capucins"
        }
    },
    {
        "type": "node",
        "id": 1879714927,
        "lat": 44.8298478,
        "lon": -0.5672437,
        "tags": {
            "amenity": "restaurant",
            "cuisine": "regional",
            "name": "Le Cochon Volant"
        }
    },
    {
        "type": "node",
        "id": 1879722840,
        "lat": 44.8309747,
        "lon": -0.5677872,
        "tags": {
            "addr:street": "Place des Capucins",
            "amenity": "restaurant",
            "cuisine": "thai",
            "name": "Pitaya"
        }
    },
    {
        "type": "node",
        "id": 1879723149,
        "lat": 44.8310025,
        "lon": -0.5679220,
        "tags": {
            "amenity": "restaurant",
            "cuisine": "kebab",
            "name": "Adana"
        }
    },
    {
        "type": "node",
        "id": 1879723720,
        "lat": 44.8309540,
        "lon": -0.5683876,
        "tags": {
            "amenity": "restaurant",
            "cuisine": "burger",
            "name": "CFC"
        }
    },
    {
        "type": "node",
        "id": 1879727454,
        "lat": 44.8296672,
        "lon": -0.5678221,
        "tags": {
            "amenity": "fast food",
            "name": "Aladin"
        }
    },
    {
        "type": "node",
        "id": 1881685493,
        "lat": 44.8328438,
        "lon": -0.5710765,
        "tags": {
            "amenity": "restaurant",
            "cuisine": "french",
            "name": "L'EntrePôte"
        }
    },
    {
        "type": "node",
        "id": 1881693262,
        "lat": 44.8311860,
        "lon": -0.5677037,
        "tags": {
            "amenity": "restaurant",
            "name": "Chez Mathilde"
        }
    },
    {
        "type": "node",
        "id": 1881698365,
        "lat": 44.8312964,
        "lon": -0.5669795,
        "tags": {
            "amenity": "restaurant",
            "cuisine": "french",
            "name": "Le Maucaillou"
        }
    },
    {
        "type": "node",
        "id": 1881726036,
        "lat": 44.8302340,
        "lon": -0.5702585,
        "tags": {
            "amenity": "restaurant",
            "cuisine": "kebab"
        }
    },
    {
        "type": "node",
        "id": 1881728288,
        "lat": 44.8313002,
        "lon": -0.5742429,
        "tags": {
            "amenity": "restaurant"
        }
    },
    {
        "type": "node",
        "id": 1885292281,
        "lat": 44.8414677,
        "lon": -0.6491688,
        "tags": {
            "amenity": "restaurant",
            "cuisine": "italian",
            "name": "Gino Pizza"
        }
    },
    {
        "type": "node",
        "id": 1885346132,
        "lat": 44.8318370,
        "lon": -0.5776171,
        "tags": {
            "amenity": "fast food",
            "cuisine": "kebab"
        }
    },
    {
        "type": "node",
        "id": 1885362616,
        "lat": 44.8360710,
        "lon": -0.6246383,
        "tags": {
            "amenity": "restaurant",
            "cuisine": "italian",
            "name": "Giulio Pizza"
        }
    },
    {
        "type": "node",
        "id": 1885936954,
        "lat": 44.8210935,
        "lon": -0.5832699,
        "tags": {
            "amenity": "restaurant",
            "cuisine": "kebab"
        }
    },
    {
        "type": "node",
        "id": 1885941605,
        "lat": 44.8233265,
        "lon": -0.5797996,
        "tags": {
            "amenity": "restaurant",
            "cuisine": "french",
            "name": "Soul Chicken",
            "outdoor_seating": "yes",
            "takeaway": "yes"
        }
    },
    {
        "type": "node",
        "id": 1885946784,
        "lat": 44.8261498,
        "lon": -0.5769472,
        "tags": {
            "amenity": "restaurant",
            "cuisine": "brasserie",
            "name": "L'échappée belle"
        }
    },
    {
        "type": "node",
        "id": 1886329316,
        "lat": 44.8296076,
        "lon": -0.5664165,
        "tags": {
            "amenity": "restaurant"
        }
    },
    {
        "type": "node",
        "id": 1886724859,
        "lat": 44.8328296,
        "lon": -0.6468040,
        "tags": {
            "amenity": "restaurant",
            "cuisine": "kebab",
            "name": "Génération Kebab"
        }
    },
    {
        "type": "node",
        "id": 1886734769,
        "lat": 44.8399831,
        "lon": -0.6668673,
        "tags": {
            "amenity": "restaurant",
            "cuisine": "french",
            "name": "La Grange"
        }
    },
    {
        "type": "node",
        "id": 1896676251,
        "lat": 44.8283336,
        "lon": -0.5618532,
        "tags": {
            "amenity": "fast food",
            "cuisine": "burger",
            "name": "Burger Box"
        }
    },
    {
        "type": "node",
        "id": 1896689133,
        "lat": 44.8283514,
        "lon": -0.5611720,
        "tags": {
            "amenity": "restaurant",
            "name": "Brasserie de la Marne"
        }
    },
    {
        "type": "node",
        "id": 1923380863,
        "lat": 44.8525378,
        "lon": -0.5722746,
        "tags": {
            "amenity": "restaurant",
            "contact:housenumber": "15",
            "contact:postcode": "33000",
            "contact:street": "rue Rode",
            "cuisine": "french",
            "name": "Plaza Chartrons"
        }
    },
    {
        "type": "node",
        "id": 1924191991,
        "lat": 44.8426852,
        "lon": -0.5566966,
        "tags": {
            "addr:city": "Bordeaux",
            "addr:housenumber": "1",
            "addr:postcode": "33100",
            "addr:street": "Rue Sainte-Marie",
            "amenity": "restaurant",
            "cuisine": "pizza",
            "name": "Pizzeria La Mona",
            "opening_hours": "Su off",
            "phone": "+33 557 540219",
            "website": "http://www.pizzeria-la-mona.com"
        }
    },
    {
        "type": "node",
        "id": 1927254620,
        "lat": 44.8187581,
        "lon": -0.5998322,
        "tags": {
            "amenity": "restaurant",
            "cuisine": "chinese",
            "name": "China express"
        }
    },
    {
        "type": "node",
        "id": 1927271551,
        "lat": 44.8193388,
        "lon": -0.6000991,
        "tags": {
            "amenity": "restaurant",
            "name": "Pizzeria"
        }
    },
    {
        "type": "node",
        "id": 1927271567,
        "lat": 44.8187476,
        "lon": -0.5997417,
        "tags": {
            "amenity": "restaurant",
            "name": "Pizza-kebab-panini"
        }
    },
    {
        "type": "node",
        "id": 1927310455,
        "lat": 44.8118828,
        "lon": -0.5924068,
        "tags": {
            "amenity": "restaurant",
            "contact:website": "https://www.restaurant-yamato.fr/",
            "cuisine": "japanese",
            "name": "Yamato"
        }
    },
    {
        "type": "node",
        "id": 1927310463,
        "lat": 44.8135712,
        "lon": -0.5897788,
        "tags": {
            "amenity": "restaurant",
            "cuisine": "italian",
            "name": "Campo Verde"
        }
    },
    {
        "type": "node",
        "id": 1927310464,
        "lat": 44.8101341,
        "lon": -0.5914600,
        "tags": {
            "amenity": "fast food",
            "cuisine": "international",
            "name": "Forum Food"
        }
    },
    {
        "type": "node",
        "id": 1927310470,
        "lat": 44.8103016,
        "lon": -0.5914961,
        "tags": {
            "addr:city": "Talence",
            "addr:country": "FR",
            "addr:housenumber": "329",
            "addr:postcode": "33400",
            "addr:street": "Cours de la Libération",
            "amenity": "restaurant",
            "contact:phone": "+33 5 56375204",
            "cuisine": "crepe",
            "description": "La première crêperie Beatles de France!",
            "name": "Twist 'n' Crêpes",
            "old_name": "Le Café Bleu",
            "opening_hours": "Tu-Sa 12:00-14:15, 19:00-22:15; Su, Mo off",
            "outdoor_seating": "yes",
            "takeaway": "yes",
            "wheelchair": "yes"
        }
    },
    {
        "type": "node",
        "id": 1927310495,
        "lat": 44.8124177,
        "lon": -0.5918424,
        "tags": {
            "amenity": "restaurant",
            "cuisine": "french",
            "name": "Bistro Régent"
        }
    },
    {
        "type": "node",
        "id": 1927310501,
        "lat": 44.8098544,
        "lon": -0.5915672,
        "tags": {
            "amenity": "restaurant",
            "cuisine": "french",
            "name": "Melisone café"
        }
    },
    {
        "type": "node",
        "id": 1927310513,
        "lat": 44.8122045,
        "lon": -0.5912393,
        "tags": {
            "addr:city": "Talence",
            "addr:housenumber": "238",
            "addr:postcode": "33400",
            "addr:street": "Cours de la Libération",
            "amenity": "restaurant",
            "cuisine": "french",
            "name": "Le Taïaut"
        }
    },
    {
        "type": "node",
        "id": 1927310518,
        "lat": 44.8120998,
        "lon": -0.5897675,
        "tags": {
            "amenity": "restaurant",
            "brewery": "Moretti;Edelweiss",
            "cuisine": "italian",
            "name": "L'Alcala",
            "opening_hours": "Mo-Th 12:00-14:00, 19:00-22:30; Fr-Sa 12:00-14:00, 19:00-23:00; Su 12:00-14:00, 19:00-22:00",
            "phone": "+33 5 56 50 03 53",
            "website": "http://www.lalcala.com"
        }
    },
    {
        "type": "node",
        "id": 1927310555,
        "lat": 44.8097174,
        "lon": -0.5915780,
        "tags": {
            "amenity": "restaurant",
            "cuisine": "kebab",
            "name": "Fac kebab"
        }
    },
    {
        "type": "node",
        "id": 1927318883,
        "lat": 44.8016581,
        "lon": -0.5946087,
        "tags": {
            "amenity": "restaurant",
            "cuisine": "italian",
            "name": "Otaku"
        }
    },
    {
        "type": "node",
        "id": 1927318903,
        "lat": 44.8058715,
        "lon": -0.5962504,
        "tags": {
            "amenity": "restaurant",
            "cuisine": "french",
            "name": "Carpe diem"
        }
    },
    {
        "type": "node",
        "id": 1927318908,
        "lat": 44.8003449,
        "lon": -0.5957300,
        "tags": {
            "amenity": "fast food",
            "cuisine": "burger",
            "name": "McDonald's"
        }
    },
    {
        "type": "node",
        "id": 1927339065,
        "lat": 44.8209156,
        "lon": -0.5829293,
        "tags": {
            "amenity": "restaurant",
            "name": "Le Bistrot des Bouchons"
        }
    },
    {
        "type": "node",
        "id": 1928803088,
        "lat": 44.8404243,
        "lon": -0.5719779,
        "tags": {
            "addr:housenumber": "6",
            "addr:street": "Place du Parlement",
            "amenity": "restaurant",
            "cuisine": "mediterranean",
            "fax": "+33 5 56012347",
            "name": "Karl",
            "phone": "+33 5 56810100",
            "source": "survey",
            "website": "http://www.karlbordeaux.fr"
        }
    },
    {
        "type": "node",
        "id": 1932014153,
        "lat": 44.8515985,
        "lon": -0.5711317,
        "tags": {
            "addr:housenumber": "3",
            "addr:postcode": "33000",
            "addr:street": "Impasse du couvent",
            "amenity": "restaurant",
            "cuisine": "japanese",
            "name": "L'Arc-en-Ciel"
        }
    },
    {
        "type": "node",
        "id": 1982595798,
        "lat": 44.8344529,
        "lon": -0.5667720,
        "tags": {
            "amenity": "restaurant",
            "cuisine": "crepe",
            "name": "La Mère Michel",
            "outdoor_seating": "yes",
            "smoking": "outside"
        }
    },
    {
        "type": "node",
        "id": 1982597079,
        "lat": 44.8344000,
        "lon": -0.5667249,
        "tags": {
            "amenity": "restaurant",
            "cuisine": "pizza",
            "name": "Buena Pizza Social Club",
            "outdoor_seating": "yes",
            "smoking": "outside",
            "takeaway": "yes"
        }
    },
    {
        "type": "node",
        "id": 1982598013,
        "lat": 44.8348800,
        "lon": -0.5662207,
        "tags": {
            "amenity": "restaurant",
            "cuisine": "kebab",
            "name": "L'Atlas",
            "outdoor_seating": "yes",
            "smoking": "outside",
            "takeaway": "yes"
        }
    },
    {
        "type": "node",
        "id": 1982600551,
        "lat": 44.8347278,
        "lon": -0.5652862,
        "tags": {
            "amenity": "restaurant",
            "cuisine": "mediterranean",
            "name": "Le Marhaba",
            "outdoor_seating": "yes",
            "smoking": "outside",
            "takeaway": "yes"
        }
    },
    {
        "type": "node",
        "id": 1982601322,
        "lat": 44.8310217,
        "lon": -0.5680145,
        "tags": {
            "addr:city": "Bordeaux",
            "addr:housenumber": "49",
            "addr:postcode": "33800",
            "addr:street": "Place des Capucins",
            "amenity": "restaurant",
            "cuisine": "lebanese",
            "name": "Adonis",
            "outdoor_seating": "yes",
            "smoking": "outside",
            "takeaway": "yes"
        }
    },
    {
        "type": "node",
        "id": 1982604237,
        "lat": 44.8368701,
        "lon": -0.5721224,
        "tags": {
            "addr:postcode": "33000",
            "addr:street": "rue des Ayres",
            "amenity": "restaurant",
            "cuisine": "italian",
            "name": "L'Arteghiano",
            "outdoor_seating": "no",
            "smoking": "no",
            "takeaway": "yes"
        }
    },
    {
        "type": "node",
        "id": 1982605208,
        "lat": 44.8368753,
        "lon": -0.5716346,
        "tags": {
            "amenity": "restaurant",
            "cuisine": "vietnamese",
            "name": "Pho",
            "outdoor_seating": "yes"
        }
    },
    {
        "type": "node",
        "id": 2022782578,
        "lat": 44.8078311,
        "lon": -0.5541263,
        "tags": {
            "addr:city": "Bègles",
            "addr:housenumber": "5",
            "addr:postcode": "33130",
            "addr:street": "Avenue Lucien Lerousseau",
            "amenity": "fast food",
            "cuisine": "pizza",
            "delivery": "no",
            "name": "La pizz'a Fanny",
            "opening_hours": "Mo-Th 18:00-22:00; Fr,Sa 11:00-14:00,18:00-22:00",
            "phone": "+33 5 56 85 51 64",
            "takeaway": "only",
            "website": "http://www.lapizzafanny.fr/"
        }
    },
    {
        "type": "node",
        "id": 2026358388,
        "lat": 44.8386189,
        "lon": -0.6171756,
        "tags": {
            "amenity": "restaurant",
            "cuisine": "japanese",
            "name": "sushi design mondésir"
        }
    },
    {
        "type": "node",
        "id": 2026361668,
        "lat": 44.8371639,
        "lon": -0.6165775,
        "tags": {
            "amenity": "restaurant",
            "cuisine": "chinese",
            "name": "Délices de Mondésir"
        }
    },
    {
        "type": "node",
        "id": 2040304214,
        "lat": 44.7902758,
        "lon": -0.6345741,
        "tags": {
            "amenity": "fast food"
        }
    },
    {
        "type": "node",
        "id": 2213698016,
        "lat": 44.8093018,
        "lon": -0.6268812,
        "tags": {
            "addr:city": "Pessac",
            "addr:housenumber": "56",
            "addr:postcode": "33600",
            "addr:street": "Avenue du Docteur Nancel Pénard",
            "amenity": "restaurant",
            "cuisine": "vietnamese",
            "name": "Le New Mékong",
            "phone": "+33 5 56 45 57 11"
        }
    },
    {
        "type": "node",
        "id": 2229051438,
        "lat": 44.8409370,
        "lon": -0.5736330,
        "tags": {
            "addr:housenumber": "21",
            "addr:postcode": "33000",
            "addr:street": "Rue Piliers de Tutelle",
            "amenity": "restaurant",
            "cuisine": "chicken",
            "name": "Mon Q C du Poulet",
            "website": "http://www.monqcdupoulet.com/"
        }
    },
    {
        "type": "node",
        "id": 2231859760,
        "lat": 44.8412700,
        "lon": -0.5732120,
        "tags": {
            "amenity": "restaurant",
            "name": "Le Bistro Régent"
        }
    },
    {
        "type": "node",
        "id": 2238427757,
        "lat": 44.8378644,
        "lon": -0.5754935,
        "tags": {
            "addr:housenumber": "81, 83",
            "addr:street": "rue du Loup",
            "amenity": "restaurant",
            "name": "Le Cheverus Café",
            "wheelchair": "yes"
        }
    },
    {
        "type": "node",
        "id": 2238453091,
        "lat": 44.8385362,
        "lon": -0.5787897,
        "tags": {
            "addr:housenumber": "71",
            "addr:street": "Rue des Trois Conils",
            "amenity": "restaurant",
            "name": "Le Bocal de Tatie Josée",
            "opening_hours": "Mo-Su 8:00-19:00",
            "phone": "+33 9 80 79 80 79"
        }
    },
    {
        "type": "node",
        "id": 2238491966,
        "lat": 44.8389004,
        "lon": -0.5750142,
        "tags": {
            "amenity": "restaurant",
            "cuisine": "japanese",
            "name": "Thaï Box Minute"
        }
    },
    {
        "type": "node",
        "id": 2242907642,
        "lat": 44.8059152,
        "lon": -0.6307290,
        "tags": {
            "addr:city": "Pessac",
            "addr:housenumber": "41",
            "addr:postcode": "33600",
            "addr:street": "Place de la Vème République",
            "amenity": "restaurant",
            "cuisine": "french",
            "email": "contact@leboeufsurlaplace.net",
            "name": "Le Boeuf sur la Place",
            "outdoor_seating": "yes",
            "phone": "+33 5 56 15 09 10",
            "website": "http://www.leboeufsurlaplace.net"
        }
    },
    {
        "type": "node",
        "id": 2244451428,
        "lat": 44.8281508,
        "lon": -0.5673914,
        "tags": {
            "addr:street": "Rue Ferbos",
            "amenity": "fast food",
            "cuisine": "french",
            "name": "Snack Bar - Le Guernica"
        }
    },
    {
        "type": "node",
        "id": 2262581290,
        "lat": 44.8359133,
        "lon": -0.6789492,
        "tags": {
            "amenity": "restaurant",
            "name": "Le Shogun"
        }
    },
    {
        "type": "node",
        "id": 2278792266,
        "lat": 44.7825310,
        "lon": -0.6509387,
        "tags": {
            "addr:city": "Pessac",
            "addr:housenumber": "198",
            "addr:postcode": "33600",
            "addr:street": "Avenue du Haut-Lévêque",
            "amenity": "restaurant",
            "cuisine": "crepe",
            "name": "La Crêperie",
            "phone": "+33 5 57 29 33 81",
            "source": "cadastre-dgi-fr source : Direction Générale des Impôts - Cadastre. Mise à jour : 2013",
            "website": "http://www.creperie-pessac.com/"
        }
    },
    {
        "type": "node",
        "id": 2278792277,
        "lat": 44.7822711,
        "lon": -0.6506068,
        "tags": {
            "amenity": "restaurant",
            "name": "Taste and Go",
            "source": "cadastre-dgi-fr source : Direction Générale des Impôts - Cadastre. Mise à jour : 2013",
            "takeaway": "yes"
        }
    },
    {
        "type": "node",
        "id": 2291199046,
        "lat": 44.8334904,
        "lon": -0.5820137,
        "tags": {
            "amenity": "restaurant",
            "cuisine": "japanese",
            "name": "Miyako"
        }
    },
    {
        "type": "node",
        "id": 2293643658,
        "lat": 44.8277480,
        "lon": -0.5755023,
        "tags": {
            "addr:housenumber": "103",
            "addr:postcode": "33000",
            "addr:street": "Cours de l'Argonne",
            "amenity": "restaurant",
            "cuisine": "indian",
            "diet:vegetarian": "yes",
            "name": "Vinayaka Restaurant",
            "phone": "+33 5 56945330",
            "website": "http://www.restaurantvinayaka.com"
        }
    },
    {
        "type": "node",
        "id": 2321388821,
        "lat": 44.8415455,
        "lon": -0.6539545,
        "tags": {
            "amenity": "fast food",
            "contact:phone": "+33556970393",
            "contact:website": "http://www.laboiteapizza.com",
            "cuisine": "pizza",
            "name": "La boîte à pizza"
        }
    },
    {
        "type": "node",
        "id": 2321388835,
        "lat": 44.8414656,
        "lon": -0.6540859,
        "tags": {
            "amenity": "fast food",
            "cuisine": "kebab",
            "name": "Octavio"
        }
    },
    {
        "type": "node",
        "id": 2321388857,
        "lat": 44.8414180,
        "lon": -0.6528414,
        "tags": {
            "amenity": "fast food",
            "cuisine": "pizza",
            "name": "Domino's Pizza"
        }
    },
    {
        "type": "node",
        "id": 2321424247,
        "lat": 44.8564594,
        "lon": -0.6537128,
        "tags": {
            "amenity": "fast food",
            "cuisine": "burger",
            "name": "McDonald's"
        }
    },
    {
        "type": "node",
        "id": 2353105920,
        "lat": 44.8412946,
        "lon": -0.5720269,
        "tags": {
            "addr:housenumber": "32",
            "addr:postcode": "33000",
            "addr:street": "Rue Saint-Rémi",
            "amenity": "restaurant",
            "name": "Nom d'Une Crepe",
            "name:en": "Nom d'Une Crepe",
            "name:es": "Nom d'Une Crepe",
            "name:fr": "Nom d'Une Crepe",
            "opening_hours": "Mo-Su 11:45-14:45,18:45-22:45",
            "source": "Communauté Urbaine de Bordeaux - 06/2013"
        }
    },
    {
        "type": "node",
        "id": 2353562783,
        "lat": 44.8387973,
        "lon": -0.5376807,
        "tags": {
            "amenity": "restaurant",
            "name": "Chez Carmen"
        }
    },
    {
        "type": "node",
        "id": 2353659441,
        "lat": 44.8403603,
        "lon": -0.5705420,
        "tags": {
            "addr:housenumber": "14",
            "amenity": "restaurant",
            "name": "Donastia",
            "source": "Communauté Urbaine de Bordeaux - 06/2013"
        }
    },
    {
        "type": "node",
        "id": 2353659455,
        "lat": 44.8403830,
        "lon": -0.5705943,
        "tags": {
            "addr:housenumber": "15",
            "amenity": "restaurant",
            "cuisine": "pizza",
            "name": "Osteria Pizzeria de Bartolo",
            "source": "Communauté Urbaine de Bordeaux - 06/2013"
        }
    },
    {
        "type": "node",
        "id": 2353659466,
        "lat": 44.8403200,
        "lon": -0.5705597,
        "tags": {
            "addr:housenumber": "16",
            "amenity": "restaurant",
            "name": "La Pignatta",
            "source": "Communauté Urbaine de Bordeaux - 06/2013"
        }
    },
    {
        "type": "node",
        "id": 2353659478,
        "lat": 44.8403277,
        "lon": -0.5706198,
        "tags": {
            "addr:housenumber": "17",
            "amenity": "restaurant",
            "cuisine": "indian",
            "name": "Le Rajwal",
            "source": "Communauté Urbaine de Bordeaux - 06/2013"
        }
    },
    {
        "type": "node",
        "id": 2353659519,
        "lat": 44.8407226,
        "lon": -0.5703818,
        "tags": {
            "addr:housenumber": "2",
            "amenity": "restaurant",
            "name": "Le Gril au Thym",
            "source": "Communauté Urbaine de Bordeaux - 06/2013"
        }
    },
    {
        "type": "node",
        "id": 2353659546,
        "lat": 44.8402189,
        "lon": -0.5706687,
        "tags": {
            "addr:housenumber": "21",
            "amenity": "restaurant",
            "name": "Les Fils à Maman",
            "source": "Communauté Urbaine de Bordeaux - 06/2013"
        }
    },
    {
        "type": "node",
        "id": 2353659705,
        "lat": 44.8398772,
        "lon": -0.5695920,
        "tags": {
            "addr:housenumber": "3",
            "addr:postcode": "33000",
            "addr:street": "Rue de la Cour des Aides",
            "amenity": "restaurant",
            "cuisine": "italian_pizza",
            "name": "Capperi Pizzaioli Italiani",
            "opening_hours": "We-Su 19:00-23:00",
            "phone": "+33 5 56 90 93 05",
            "source": "Communauté Urbaine de Bordeaux - 06/2013"
        }
    },
    {
        "type": "node",
        "id": 2353659711,
        "lat": 44.8407175,
        "lon": -0.5704577,
        "tags": {
            "addr:housenumber": "3",
            "amenity": "restaurant",
            "name": "Lume - petit resto",
            "source": "Communauté Urbaine de Bordeaux - 06/2013"
        }
    },
    {
        "type": "node",
        "id": 2353659824,
        "lat": 44.8406687,
        "lon": -0.5704699,
        "tags": {
            "addr:housenumber": "5",
            "amenity": "restaurant",
            "name": "La Lionne blanche",
            "source": "Communauté Urbaine de Bordeaux - 06/2013"
        }
    },
    {
        "type": "node",
        "id": 2353659829,
        "lat": 44.8409266,
        "lon": -0.5708757,
        "tags": {
            "addr:housenumber": "5",
            "amenity": "restaurant",
            "name": "Koh I Noor",
            "name:fr": "Koh I Noor",
            "source": "Communauté Urbaine de Bordeaux - 06/2013"
        }
    },
    {
        "type": "node",
        "id": 2353659885,
        "lat": 44.8405990,
        "lon": -0.5704046,
        "tags": {
            "addr:city": "Bordeaux",
            "addr:country": "FR",
            "addr:housenumber": "6",
            "addr:postcode": "33000",
            "addr:street": "Rue des Faussets",
            "amenity": "restaurant",
            "contact:facebook": "https://www.facebook.com/Restaurant-M%C3%A9lodie-481596565204671",
            "contact:phone": "+33642931541",
            "cuisine": "french",
            "name": "Melodie",
            "opening_hours": "Mo-Su 19:00-22:30; Th-Su 12:00-14:30",
            "payment:visa": "yes",
            "source": "Communauté Urbaine de Bordeaux - 06/2013"
        }
    },
    {
        "type": "node",
        "id": 2353660020,
        "lat": 44.8406111,
        "lon": -0.5704953,
        "tags": {
            "addr:housenumber": "7",
            "amenity": "restaurant",
            "name": "Les Voûtes",
            "source": "Communauté Urbaine de Bordeaux - 06/2013"
        }
    },
    {
        "type": "node",
        "id": 2364641310,
        "lat": 44.8391825,
        "lon": -0.5771878,
        "tags": {
            "amenity": "fast food",
            "cuisine": "sandwich",
            "name": "Comptoir des Délices"
        }
    },
    {
        "type": "node",
        "id": 2370503389,
        "lat": 44.8327781,
        "lon": -0.5707888,
        "tags": {
            "amenity": "restaurant",
            "cuisine": "regional",
            "name": "La Cave à Jules"
        }
    },
    {
        "type": "node",
        "id": 2373672255,
        "lat": 44.8422776,
        "lon": -0.5786780,
        "tags": {
            "amenity": "restaurant",
            "name": "5th Avenue Bar / Restaurant",
            "website": "http://www.5thavresto.fr/"
        }
    },
    {
        "type": "node",
        "id": 2373672262,
        "lat": 44.8430923,
        "lon": -0.5736951,
        "tags": {
            "addr:city": "Bordeaux",
            "addr:housenumber": "29",
            "addr:postcode": "33000",
            "addr:street": "Rue Esprit des Lois",
            "amenity": "restaurant",
            "cuisine": "regional",
            "name": "Chez Greg",
            "website": "http://www.chezgreg.fr/"
        }
    },
    {
        "type": "node",
        "id": 2373672267,
        "lat": 44.8426619,
        "lon": -0.5740336,
        "tags": {
            "addr:city": "Bordeaux",
            "addr:postcode": "33000",
            "addr:street": "Place de la Comédie",
            "amenity": "restaurant",
            "cuisine": "french",
            "name": "Café Opéra",
            "website": "http://www.jegher.fr/pages/opera.php"
        }
    },
    {
        "type": "node",
        "id": 2374835143,
        "lat": 44.8149852,
        "lon": -0.5724505,
        "tags": {
            "amenity": "fast food",
            "cuisine": "kebab",
            "name": "Azizounette"
        }
    },
    {
        "type": "node",
        "id": 2379066052,
        "lat": 44.8619315,
        "lon": -0.5242940,
        "tags": {
            "addr:city": "Cenon",
            "addr:country": "FR",
            "addr:housenumber": "1 B",
            "addr:postcode": "33150",
            "addr:street": "Rue Aristide Briand",
            "amenity": "restaurant",
            "contact:phone": "+33 5 57 54 12 94",
            "cuisine": "gastronomy",
            "name": "Ze'Rock",
            "smoking": "no",
            "website": "http://zerock.fr",
            "wheelchair": "yes"
        }
    },
    {
        "type": "node",
        "id": 2381389329,
        "lat": 44.8253985,
        "lon": -0.6136115,
        "tags": {
            "addr:housenumber": "93",
            "addr:postcode": "33000",
            "addr:street": "rue Eugène Jacquet",
            "amenity": "restaurant",
            "cuisine": "american",
            "name": "P'tit Québec Café",
            "website": "www.auberge-quebecoise-bordeaux.fr"
        }
    },
    {
        "type": "node",
        "id": 2382079793,
        "lat": 44.8399406,
        "lon": -0.5795636,
        "tags": {
            "addr:housenumber": "21",
            "addr:postcode": "33000",
            "addr:street": "rue des Remparts",
            "amenity": "restaurant",
            "cuisine": "pizza",
            "name": "La Mama",
            "website": "http://www.pizzeria-la-mama.fr/site.html"
        }
    },
    {
        "type": "node",
        "id": 2385330953,
        "lat": 44.8324900,
        "lon": -0.6119880,
        "tags": {
            "addr:city": "Bordeaux",
            "addr:housenumber": "24",
            "addr:postcode": "33000",
            "addr:street": "Rue Jenny Lepreux",
            "amenity": "restaurant",
            "cuisine": "italian",
            "drive_in": "no",
            "name": "Aux Délires d'Epicure",
            "outdoor_seating": "no",
            "takeaway": "yes",
            "website": "www.auxdeliresdepicure.fr"
        }
    },
    {
        "type": "node",
        "id": 2385364101,
        "lat": 44.8308166,
        "lon": -0.6031131,
        "tags": {
            "addr:housenumber": "105",
            "addr:postcode": "33000",
            "addr:street": "boulevard Georges Pompidou",
            "amenity": "restaurant",
            "cuisine": "french",
            "name": "Beaubourg"
        }
    },
    {
        "type": "node",
        "id": 2385436370,
        "lat": 44.8421614,
        "lon": -0.5720449,
        "tags": {
            "addr:housenumber": "22",
            "addr:postcode": "33000",
            "addr:street": "cours du Chapeau Rouge",
            "amenity": "restaurant",
            "cuisine": "sardinian",
            "name": "Elio's"
        }
    },
    {
        "type": "node",
        "id": 2385441448,
        "lat": 44.8453953,
        "lon": -0.5775236,
        "tags": {
            "addr:housenumber": "4",
            "addr:postcode": "33000",
            "addr:street": "cours de Verdun",
            "amenity": "restaurant",
            "name": "Chez Pompon"
        }
    },
    {
        "type": "node",
        "id": 2393767316,
        "lat": 44.8150462,
        "lon": -0.5724319,
        "tags": {
            "amenity": "fast food",
            "cuisine": "italian"
        }
    },
    {
        "type": "node",
        "id": 2393827852,
        "lat": 44.8323517,
        "lon": -0.5722280,
        "tags": {
            "amenity": "restaurant",
            "cuisine": "italian",
            "name": "Eden Pasta"
        }
    },
    {
        "type": "node",
        "id": 2393852107,
        "lat": 44.8323745,
        "lon": -0.5716191,
        "tags": {
            "amenity": "restaurant",
            "cuisine": "african",
            "name": "Restaurant Atlantique"
        }
    },
    {
        "type": "node",
        "id": 2394967312,
        "lat": 44.8314677,
        "lon": -0.5726982,
        "tags": {
            "amenity": "fast food",
            "cuisine": "pizza",
            "name": "Speed Rabbit Pizza",
            "website": "http://www.speedrabbitpizza.com/"
        }
    },
    {
        "type": "node",
        "id": 2411400431,
        "lat": 44.8060862,
        "lon": -0.6011612,
        "tags": {
            "amenity": "fast food",
            "cuisine": "sandwich",
            "name": "Au Nouveau Monde"
        }
    },
    {
        "type": "node",
        "id": 2414832421,
        "lat": 44.8345778,
        "lon": -0.5713937,
        "tags": {
            "addr:city": "Bordeaux",
            "addr:housenumber": "7",
            "addr:postcode": "33000",
            "addr:street": "Rue du Mirail",
            "amenity": "restaurant",
            "cuisine": "asian",
            "name": "Le Petit Nem",
            "takeaway": "yes"
        }
    },
    {
        "type": "node",
        "id": 2426715515,
        "lat": 44.8575650,
        "lon": -0.5600784,
        "tags": {
            "amenity": "restaurant"
        }
    },
    {
        "type": "node",
        "id": 2463788268,
        "lat": 44.8392870,
        "lon": -0.5706683,
        "tags": {
            "addr:city": "Bordeaux",
            "addr:country": "FR",
            "addr:housename": "Belle Campagne",
            "addr:housenumber": "15",
            "addr:postcode": "33000",
            "addr:street": "Rue des Bahutiers",
            "amenity": "restaurant",
            "cuisine": "french",
            "name": "Belle Campagne",
            "opening_hours": "Tu-Th 19:00-22:00, Fr,Sa 19:00-22:30",
            "phone": "+33556811651",
            "website": "http://www.belle-campagne.fr",
            "wheelchair": "limited"
        }
    },
    {
        "type": "node",
        "id": 2463788303,
        "lat": 44.8388654,
        "lon": -0.5706825,
        "tags": {
            "addr:housenumber": "27",
            "amenity": "restaurant",
            "name": "vins urbains"
        }
    },
    {
        "type": "node",
        "id": 2465172763,
        "lat": 44.8368860,
        "lon": -0.5797777,
        "tags": {
            "addr:housenumber": "17",
            "addr:street": "Rue des Frères Bonie",
            "amenity": "restaurant",
            "cuisine": "vietnamese",
            "name": "Phénix d'or"
        }
    },
    {
        "type": "node",
        "id": 2465172780,
        "lat": 44.8379608,
        "lon": -0.5675762,
        "tags": {
            "addr:housenumber": "2",
            "addr:street": "Cours d'Alsace et Lorraine",
            "amenity": "fast food",
            "cuisine": "regional",
            "name": "Label Terre"
        }
    },
    {
        "type": "node",
        "id": 2480379618,
        "lat": 44.8429441,
        "lon": -0.5494082,
        "tags": {
            "amenity": "restaurant",
            "name": "kebab Bonnefin",
            "source": "Communauté Urbaine de Bordeaux - 09/2013"
        }
    },
    {
        "type": "node",
        "id": 2481087104,
        "lat": 44.8307108,
        "lon": -0.5716818,
        "tags": {
            "amenity": "restaurant",
            "cuisine": "vietnamese",
            "name": "Fleur d'Asie"
        }
    },
    {
        "type": "node",
        "id": 2485008767,
        "lat": 44.8242322,
        "lon": -0.5583361,
        "tags": {
            "addr:housenumber": "12",
            "amenity": "restaurant",
            "name": "L'En K",
            "opening_hours": "Ma-Ve 11:45-15:00",
            "source": "Communauté Urbaine de Bordeaux - 09/2013"
        }
    },
    {
        "type": "node",
        "id": 2485488394,
        "lat": 44.8319043,
        "lon": -0.5652946,
        "tags": {
            "addr:housenumber": "7",
            "addr:postcode": "33800",
            "addr:street": "Rue Traversanne",
            "amenity": "restaurant",
            "name": "Le Boudoir",
            "name:fr": "Le Boudoir",
            "source": "Communauté Urbaine de Bordeaux - 09/2013"
        }
    },
    {
        "type": "node",
        "id": 2485496276,
        "lat": 44.8308718,
        "lon": -0.5715261,
        "tags": {
            "amenity": "fast food",
            "cuisine": "mexican",
            "name": "Tacos"
        }
    },
    {
        "type": "node",
        "id": 2485563760,
        "lat": 44.8325098,
        "lon": -0.5723162,
        "tags": {
            "amenity": "restaurant",
            "cuisine": "spanish",
            "name": "l'Escorial",
            "website": "http://www.lescorial.fr/index.html"
        }
    },
    {
        "type": "node",
        "id": 2485563790,
        "lat": 44.8324914,
        "lon": -0.5728165,
        "tags": {
            "amenity": "restaurant",
            "cuisine": "japanese",
            "name": "Nobi Nobi",
            "takeaway": "yes"
        }
    },
    {
        "type": "node",
        "id": 2485563816,
        "lat": 44.8325189,
        "lon": -0.5715350,
        "tags": {
            "amenity": "restaurant",
            "name": "Canelle et Safran"
        }
    },
    {
        "type": "node",
        "id": 2485582437,
        "lat": 44.8368902,
        "lon": -0.5744494,
        "tags": {
            "addr:housenumber": "57",
            "addr:street": "Rue des Ayres",
            "amenity": "restaurant",
            "diet:vegan": "yes",
            "diet:vegetarian": "yes",
            "name": "Personne n'est parfait",
            "source": "Communauté Urbaine de Bordeaux - 09/2013"
        }
    },
    {
        "type": "node",
        "id": 2485592989,
        "lat": 44.8373950,
        "lon": -0.5710362,
        "tags": {
            "addr:housenumber": "37",
            "addr:street": "Rue Sainte-Colombe",
            "amenity": "restaurant",
            "cuisine": "thai",
            "name": "Padang Padang",
            "phone": "+33954132134",
            "source": "Communauté Urbaine de Bordeaux - 09/2013",
            "website": "http://www.padang-padang.com/"
        }
    },
    {
        "type": "node",
        "id": 2486305718,
        "lat": 44.8323592,
        "lon": -0.5718415,
        "tags": {
            "amenity": "restaurant",
            "name": "Fleur de Sel"
        }
    },
    {
        "type": "node",
        "id": 2486320049,
        "lat": 44.8322679,
        "lon": -0.5725197,
        "tags": {
            "amenity": "fast food",
            "cuisine": "mexican",
            "name": "Cantina Mexicana"
        }
    },
    {
        "type": "node",
        "id": 2486321465,
        "lat": 44.8322171,
        "lon": -0.5725621,
        "tags": {
            "amenity": "fast food",
            "name": "Bollywood"
        }
    },
    {
        "type": "node",
        "id": 2486846631,
        "lat": 44.8376112,
        "lon": -0.5690493,
        "tags": {
            "addr:housenumber": "13",
            "addr:street": "Rue de la Rousselle",
            "amenity": "restaurant",
            "cuisine": "french",
            "name": "Toque et Broc",
            "source": "Communauté Urbaine de Bordeaux - 09/2013"
        }
    },
    {
        "type": "node",
        "id": 2486846873,
        "lat": 44.8383306,
        "lon": -0.5685696,
        "tags": {
            "addr:city": "Bordeaux",
            "addr:housenumber": "9",
            "addr:street": "Rue Ausone",
            "amenity": "restaurant",
            "name": "Loka Wine",
            "phone": "+33 5 57 30 99 18",
            "source": "Communauté Urbaine de Bordeaux - 09/2013",
            "website": "http://lokawine.com/"
        }
    },
    {
        "type": "node",
        "id": 2486864061,
        "lat": 44.8351652,
        "lon": -0.5743033,
        "tags": {
            "amenity": "restaurant",
            "cuisine": "french",
            "name": "Le Ruban"
        }
    },
    {
        "type": "node",
        "id": 2486866020,
        "lat": 44.8340688,
        "lon": -0.5757030,
        "tags": {
            "addr:housenumber": "34",
            "addr:postcode": "33000",
            "addr:street": "Rue Paul Louis Lande",
            "amenity": "restaurant",
            "cuisine": "asian",
            "name": "Chez Kimmie",
            "name:fr": "Chez Kimmie",
            "phone": "+33651377776",
            "source": "Communauté Urbaine de Bordeaux - 09/2013"
        }
    },
    {
        "type": "node",
        "id": 2486962003,
        "lat": 44.8387842,
        "lon": -0.5790554,
        "tags": {
            "addr:housenumber": "64",
            "addr:postcode": "33000",
            "addr:street": "Rue des Remparts",
            "amenity": "restaurant",
            "cuisine": "cake;breakfast;coffee_shop;tea",
            "internet_access": "wlan",
            "name": "Comptoir des remparts",
            "opening_hours": "Mo-Fr 11:00-18:00;Sa-Su 10:00-19:00",
            "phone": "+33 5 56 44 98 22",
            "source": "Communauté Urbaine de Bordeaux - 09/2013",
            "website": "http://www.comptoirdesremparts.fr/"
        }
    },
    {
        "type": "node",
        "id": 2487042950,
        "lat": 44.8350946,
        "lon": -0.5732709,
        "tags": {
            "amenity": "fast food",
            "cuisine": "burger",
            "delivery": "no",
            "drive_through": "no",
            "name": "Burger King",
            "opening_hours": "Dim-Jeu 11h-00h Ven-Sam 11h-02h",
            "operator": "Restaurant Brands International",
            "outdoor_seating": "no",
            "phone": "+33 5 35 14 01 83",
            "smoking": "no",
            "source": "https://fr.wikipedia.org/wiki/Restaurant_Brands_International",
            "takeaway": "yes",
            "website": "https://www.burgerking.fr/restaurants/q/bordeaux"
        }
    },
    {
        "type": "node",
        "id": 2491134002,
        "lat": 44.8308694,
        "lon": -0.5718819,
        "tags": {
            "amenity": "restaurant",
            "cuisine": "french",
            "name": "Saint-Aubin"
        }
    },
    {
        "type": "node",
        "id": 2491301869,
        "lat": 44.8524154,
        "lon": -0.5732662,
        "tags": {
            "addr:housenumber": "10",
            "amenity": "fast food",
            "cuisine": "sandwich",
            "level": "0",
            "name": "Le Manhattan",
            "source": "Communauté Urbaine de Bordeaux - 09/2013"
        }
    },
    {
        "type": "node",
        "id": 2492192315,
        "lat": 44.8324924,
        "lon": -0.5727335,
        "tags": {
            "amenity": "restaurant",
            "cuisine": "italian",
            "name": "Pizzaria San Remo"
        }
    },
    {
        "type": "node",
        "id": 2492198375,
        "lat": 44.8324858,
        "lon": -0.5725645,
        "tags": {
            "amenity": "restaurant",
            "cuisine": "asian",
            "name": "I Bo-Bun"
        }
    },
    {
        "type": "node",
        "id": 2492201119,
        "lat": 44.8324895,
        "lon": -0.5723841,
        "tags": {
            "amenity": "restaurant",
            "cuisine": "kebab",
            "name": "Couscous"
        }
    },
    {
        "type": "node",
        "id": 2492216747,
        "lat": 44.8325148,
        "lon": -0.5716745,
        "tags": {
            "amenity": "restaurant",
            "cuisine": "turkish",
            "name": "Vinayaka"
        }
    },
    {
        "type": "node",
        "id": 2492259960,
        "lat": 44.8136384,
        "lon": -0.5648504,
        "tags": {
            "amenity": "restaurant",
            "cuisine": "international",
            "name": "Le Congo"
        }
    },
    {
        "type": "node",
        "id": 2500611467,
        "lat": 44.8308137,
        "lon": -0.5735850,
        "tags": {
            "amenity": "restaurant",
            "cuisine": "spanish",
            "name": "Le Casa"
        }
    },
    {
        "type": "node",
        "id": 2501524007,
        "lat": 44.8603489,
        "lon": -0.5638753,
        "tags": {
            "addr:housenumber": "170",
            "amenity": "restaurant",
            "contact:email": "commandesletempsdunepause@gmail.com",
            "contact:phone": "+33556506618",
            "contact:website": "http://letempsdunepause.fr/",
            "delivery": "yes",
            "name": "Le temps d'une pause",
            "source": "Communauté Urbaine de Bordeaux - 09/2013",
            "takeaway": "yes"
        }
    },
    {
        "type": "node",
        "id": 2503316953,
        "lat": 44.8656305,
        "lon": -0.5489989,
        "tags": {
            "addr:housenumber": "28",
            "amenity": "restaurant",
            "name": "Bar de la Marine",
            "source": "Communauté Urbaine de Bordeaux - 09/2013"
        }
    },
    {
        "type": "node",
        "id": 2511398480,
        "lat": 44.8306576,
        "lon": -0.5714556,
        "tags": {
            "amenity": "restaurant",
            "cuisine": "american",
            "name": "FFC"
        }
    },
    {
        "type": "node",
        "id": 2514970208,
        "lat": 44.7831547,
        "lon": -0.6482294,
        "tags": {
            "amenity": "restaurant",
            "cuisine": "italian",
            "name": "La Tavola Da Vinci"
        }
    },
    {
        "type": "node",
        "id": 2514970209,
        "lat": 44.7861640,
        "lon": -0.6448376,
        "tags": {
            "amenity": "restaurant",
            "cuisine": "chinese"
        }
    },
    {
        "type": "node",
        "id": 2514970210,
        "lat": 44.7862957,
        "lon": -0.6409409,
        "tags": {
            "amenity": "fast food",
            "name": "Le 48"
        }
    },
    {
        "type": "node",
        "id": 2516158350,
        "lat": 44.8135430,
        "lon": -0.5640511,
        "tags": {
            "addr:housename": "La Fabrique",
            "addr:postcode": "33800",
            "addr:street": "boulevard Albert 1r",
            "amenity": "restaurant",
            "cuisine": "international",
            "name": "La Fabrique"
        }
    },
    {
        "type": "node",
        "id": 2518438996,
        "lat": 44.8355471,
        "lon": -0.5716573,
        "tags": {
            "amenity": "restaurant",
            "cuisine": "french",
            "name": "Le Chat Gourmand"
        }
    },
    {
        "type": "node",
        "id": 2519738293,
        "lat": 44.8355136,
        "lon": -0.5729608,
        "tags": {
            "addr:housename": "La Grillole",
            "addr:housenumber": "7",
            "addr:postcode": "33000",
            "addr:street": "rue de Guienne",
            "amenity": "restaurant",
            "cuisine": "regional",
            "name": "La Grillole"
        }
    },
    {
        "type": "node",
        "id": 2519748542,
        "lat": 44.8370390,
        "lon": -0.5785500,
        "tags": {
            "addr:housenumber": "37",
            "addr:postcode": "33000",
            "addr:street": "Place Pey Berland",
            "amenity": "restaurant",
            "cuisine": "french",
            "name": "Le Bistrot du Musée",
            "outdoor_seating": "yes",
            "website": "http://www.lebistrodumusee.com/"
        }
    },
    {
        "type": "node",
        "id": 2524273756,
        "lat": 44.8527506,
        "lon": -0.5727104,
        "tags": {
            "amenity": "restaurant",
            "contact:email": "info@elnacional.fr",
            "contact:phone": "+33556792276",
            "cuisine": "argentinian",
            "description": "Bar, bistrot, comestibles",
            "name": "El Nacional"
        }
    },
    {
        "type": "node",
        "id": 2527928081,
        "lat": 44.8298531,
        "lon": -0.5699921,
        "tags": {
            "amenity": "fast food",
            "cuisine": "italian",
            "name": "Boite à Pizza"
        }
    },
    {
        "type": "node",
        "id": 2527952350,
        "lat": 44.8295011,
        "lon": -0.5700540,
        "tags": {
            "amenity": "restaurant",
            "cuisine": "regional",
            "name": "Grand Délice"
        }
    },
    {
        "type": "node",
        "id": 2527953685,
        "lat": 44.8294402,
        "lon": -0.5700594,
        "tags": {
            "amenity": "restaurant",
            "cuisine": "regional",
            "name": "Le Binam"
        }
    },
    {
        "type": "node",
        "id": 2529154764,
        "lat": 44.8397188,
        "lon": -0.5721485,
        "tags": {
            "addr:city": "Bordeaux",
            "addr:housenumber": "15",
            "addr:postcode": "33000",
            "addr:street": "Rue du Pas Saint-Georges",
            "amenity": "restaurant",
            "cuisine": "regional",
            "name": "Le Michel's"
        }
    },
    {
        "type": "node",
        "id": 2534027602,
        "lat": 44.8433836,
        "lon": -0.5866262,
        "tags": {
            "addr:housenumber": "4",
            "amenity": "fast food",
            "cuisine": "pizza",
            "level": "0",
            "source": "Communauté Urbaine de Bordeaux - 09/2013"
        }
    },
    {
        "type": "node",
        "id": 2535568988,
        "lat": 44.8340352,
        "lon": -0.5892943,
        "tags": {
            "addr:housenumber": "138",
            "amenity": "restaurant",
            "name": "fleur de cedre",
            "source": "Communauté Urbaine de Bordeaux - 09/2013"
        }
    },
    {
        "type": "node",
        "id": 2546928936,
        "lat": 44.8387220,
        "lon": -0.5725748,
        "tags": {
            "amenity": "restaurant",
            "cuisine": "italian",
            "name": "Simeone dell'Arte",
            "outdoor_seating": "yes",
            "phone": "+33556526532",
            "wheelchair": "limited"
        }
    },
    {
        "type": "node",
        "id": 2547157149,
        "lat": 44.8446808,
        "lon": -0.5586755,
        "tags": {
            "addr:city": "Bordeaux",
            "addr:housename": "Esplanade Linné",
            "addr:postcode": "33100",
            "addr:street": "Rue Gustave Carde",
            "amenity": "restaurant",
            "capacity": "50",
            "cuisine": "french",
            "name": "Le Caillou",
            "opening_hours": "th-sa 12:00-1:00",
            "phone": "+33685993242",
            "website": "http://lecaillou-bordeaux.com/",
            "wheelchair": "yes"
        }
    },
    {
        "type": "node",
        "id": 2549147400,
        "lat": 44.7911009,
        "lon": -0.5887149,
        "tags": {
            "addr:city": "Talence",
            "addr:housename": "gambetta2",
            "addr:postcode": "33400",
            "addr:street": "Rue Chateaubriand",
            "amenity": "fast food",
            "cuisine": "kebab"
        }
    },
    {
        "type": "node",
        "id": 2567785079,
        "lat": 44.8378649,
        "lon": -0.5674014,
        "tags": {
            "amenity": "restaurant",
            "cuisine": "french",
            "name": "La Tanière"
        }
    },
    {
        "type": "node",
        "id": 2572761660,
        "lat": 44.8421339,
        "lon": -0.5800189,
        "tags": {
            "amenity": "restaurant",
            "cuisine": "japanese",
            "name": "Planet Sushi"
        }
    },
    {
        "type": "node",
        "id": 2583409558,
        "lat": 44.8221132,
        "lon": -0.5819933,
        "tags": {
            "amenity": "restaurant",
            "name": "Le P'tit Bio"
        }
    },
    {
        "type": "node",
        "id": 2586619869,
        "lat": 44.8301126,
        "lon": -0.5638054,
        "tags": {
            "amenity": "restaurant",
            "cuisine": "sandwich",
            "name": "Milk des Douves"
        }
    },
    {
        "type": "node",
        "id": 2587657741,
        "lat": 44.7934642,
        "lon": -0.5299506,
        "tags": {
            "amenity": "fast food",
            "brand:wikidata": "Q38076",
            "brand:wikipedia": "fr:McDonald's",
            "cuisine": "burger",
            "delivery": "no",
            "name": "McDonald's",
            "operator": "McDonald's",
            "phone": "+33 5 57 35 20 00",
            "takeaway": "yes"
        }
    },
    {
        "type": "node",
        "id": 2587692345,
        "lat": 44.7948271,
        "lon": -0.5328610,
        "tags": {
            "amenity": "restaurant",
            "name": "Flam's"
        }
    },
    {
        "type": "node",
        "id": 2587692346,
        "lat": 44.7948517,
        "lon": -0.5326506,
        "tags": {
            "amenity": "fast food",
            "name": "231 East St"
        }
    },
    {
        "type": "node",
        "id": 2587692348,
        "lat": 44.7934486,
        "lon": -0.5295581,
        "tags": {
            "amenity": "restaurant",
            "name": "Cafetaria"
        }
    },
    {
        "type": "node",
        "id": 2623543317,
        "lat": 44.8561301,
        "lon": -0.5617924,
        "tags": {
            "addr:city": "Bordeaux",
            "amenity": "restaurant",
            "cuisine": "french",
            "name": "Les Docks"
        }
    },
    {
        "type": "node",
        "id": 2624553122,
        "lat": 44.7885596,
        "lon": -0.5322391,
        "tags": {
            "amenity": "restaurant",
            "cuisine": "japanese",
            "name": "Sakura"
        }
    },
    {
        "type": "node",
        "id": 2624553123,
        "lat": 44.7898652,
        "lon": -0.5310924,
        "tags": {
            "amenity": "restaurant",
            "cuisine": "french",
            "name": "La Pataterie"
        }
    },
    {
        "type": "node",
        "id": 2667621856,
        "lat": 44.8321747,
        "lon": -0.6130670,
        "tags": {
            "addr:city": "Bordeaux",
            "addr:housenumber": "158",
            "addr:postcode": "33000",
            "addr:street": "Rue Émile Combes",
            "amenity": "restaurant",
            "capacity": "40",
            "cuisine": "tapas;alcol;burger;coucous;plat_du_jour;tagine;blanquette;entrecote;dessert;glace;entrées",
            "name": "Le Rily's",
            "outdoor_seating": "yes",
            "smoking": "outside",
            "source": "Communauté Urbaine de Bordeaux - 09/2014",
            "takeaway": "yes"
        }
    },
    {
        "type": "node",
        "id": 2667629006,
        "lat": 44.8307981,
        "lon": -0.6044625,
        "tags": {
            "addr:housenumber": "12",
            "amenity": "restaurant",
            "name": "Le Family",
            "source": "Communauté Urbaine de Bordeaux - 09/2014"
        }
    },
    {
        "type": "node",
        "id": 2667701937,
        "lat": 44.8387049,
        "lon": -0.6151506,
        "tags": {
            "addr:housenumber": "297",
            "amenity": "restaurant",
            "cuisine": "pizza,_paëlla",
            "name": "sudissima",
            "source": "Communauté Urbaine de Bordeaux - 09/2014"
        }
    },
    {
        "type": "node",
        "id": 2667701944,
        "lat": 44.8386494,
        "lon": -0.6153802,
        "tags": {
            "addr:housenumber": "301",
            "amenity": "restaurant",
            "cuisine": "chinese",
            "source": "Communauté Urbaine de Bordeaux - 09/2014"
        }
    },
    {
        "type": "node",
        "id": 2667701945,
        "lat": 44.8386368,
        "lon": -0.6154340,
        "tags": {
            "addr:housenumber": "303",
            "amenity": "restaurant",
            "cuisine": "chinese",
            "source": "Communauté Urbaine de Bordeaux - 09/2014"
        }
    },
    {
        "type": "node",
        "id": 2667702046,
        "lat": 44.8402578,
        "lon": -0.5998128,
        "tags": {
            "addr:housenumber": "7",
            "amenity": "restaurant",
            "cuisine": "sushi",
            "level": "0",
            "name": "Sushi Shop",
            "opening_hours": "Mo-Su 18:00-22:30",
            "source": "Communauté Urbaine de Bordeaux - 09/2014"
        }
    },
    {
        "type": "node",
        "id": 2701475923,
        "lat": 44.7885831,
        "lon": -0.5319846,
        "tags": {
            "amenity": "restaurant",
            "cuisine": "regional",
            "name": "Plaisirs Entrecôte"
        }
    },
    {
        "type": "node",
        "id": 2701476486,
        "lat": 44.7898911,
        "lon": -0.5308514,
        "tags": {
            "amenity": "restaurant",
            "cuisine": "regional",
            "name": "Au Bureau"
        }
    },
    {
        "type": "node",
        "id": 2712410124,
        "lat": 44.8399900,
        "lon": -0.6009365,
        "tags": {
            "amenity": "restaurant",
            "cuisine": "french",
            "name": "Le Jean Bar"
        }
    },
    {
        "type": "node",
        "id": 2737105062,
        "lat": 44.8364712,
        "lon": -0.6009197,
        "tags": {
            "amenity": "restaurant",
            "cuisine": "japanese",
            "name": "1001 Sushi",
            "survey:date": "2017-12-08"
        }
    },
    {
        "type": "node",
        "id": 2737111218,
        "lat": 44.8364720,
        "lon": -0.6009809,
        "tags": {
            "amenity": "restaurant",
            "cuisine": "sandwich",
            "name": "Open Style",
            "survey:date": "2017-12-08"
        }
    },
    {
        "type": "node",
        "id": 2773962909,
        "lat": 44.8582857,
        "lon": -0.6230042,
        "tags": {
            "addr:housenumber": "341",
            "amenity": "restaurant",
            "name": "Komptoir Caudéran",
            "name:fr": "Komptoir Caudéran",
            "source": "Communauté Urbaine de Bordeaux - 09/2014"
        }
    },
    {
        "type": "node",
        "id": 2782164109,
        "lat": 44.8016776,
        "lon": -0.5444201,
        "tags": {
            "amenity": "fast food",
            "cuisine": "kebab;pizza"
        }
    },
    {
        "type": "node",
        "id": 2811915602,
        "lat": 44.8619502,
        "lon": -0.5899273,
        "tags": {
            "addr:city": "Le Bouscat",
            "addr:housenumber": "45",
            "addr:postcode": "33110",
            "addr:street": "Avenue Victor Hugo",
            "amenity": "restaurant",
            "cuisine": "seafood",
            "name": "Bruno Huîtres",
            "opening_hours": "Tu-Sa 10:00-14:00,17:30-22:00",
            "source": "Communauté Urbaine de Bordeaux - 09/2014"
        }
    },
    {
        "type": "node",
        "id": 2811915661,
        "lat": 44.8639358,
        "lon": -0.5903163,
        "tags": {
            "addr:city": "Le Bouscat",
            "addr:housenumber": "87",
            "addr:postcode": "33110",
            "addr:street": "Avenue Victor Hugo",
            "amenity": "restaurant",
            "cuisine": "asian",
            "name": "Le Dragon de Jade",
            "source": "Communauté Urbaine de Bordeaux - 09/2014"
        }
    },
    {
        "type": "node",
        "id": 2825152431,
        "lat": 44.8383325,
        "lon": -0.6143765,
        "tags": {
            "addr:housenumber": "294",
            "amenity": "restaurant",
            "cuisine": "chinese",
            "name": "Tri-délice",
            "source": "Communauté Urbaine de Bordeaux - 09/2014"
        }
    },
    {
        "type": "node",
        "id": 2837938022,
        "lat": 44.8429551,
        "lon": -0.6462843,
        "tags": {
            "addr:city": "Mérignac",
            "addr:postcode": "33700",
            "amenity": "restaurant",
            "cuisine": "regional",
            "name": "Goutte de café",
            "website": "http://gouttedecafe.fr/"
        }
    },
    {
        "type": "node",
        "id": 2839963323,
        "lat": 44.8066698,
        "lon": -0.6309585,
        "tags": {
            "addr:city": "Pessac",
            "addr:housenumber": "8",
            "addr:postcode": "33600",
            "addr:street": "Place de la Liberté",
            "amenity": "restaurant",
            "cuisine": "italian",
            "delivery": "no",
            "name": "Ragazzi da Peppone",
            "outdoor_seating": "yes",
            "phone": "+33 5 56 42 33 59",
            "takeaway": "yes"
        }
    },
    {
        "type": "node",
        "id": 2839972786,
        "lat": 44.7955886,
        "lon": -0.6680655,
        "tags": {
            "amenity": "restaurant",
            "cuisine": "vietnamese",
            "name": "Binh Duong",
            "opening_hours": "Tu-Su 12:00-14:00, 19:00-23:00",
            "phone": "+33 5 56 36 71 96",
            "website": "https://www.facebook.com/restaurantbinhduong/"
        }
    },
    {
        "type": "node",
        "id": 2852336522,
        "lat": 44.8418220,
        "lon": -0.5796652,
        "tags": {
            "amenity": "restaurant",
            "brand": "Hippopotamus",
            "brand:website": "http://www.hippopotamus.fr/",
            "brand:wikidata": "Q3136174",
            "brand:wikipedia": "fr:Hippopotamus (restaurant)",
            "cuisine": "steak_house",
            "name": "Hippopotamus",
            "website": "http://www.hippopotamus.fr/resto/bordeaux-centre-12858632142546.html"
        }
    },
    {
        "type": "node",
        "id": 2852337914,
        "lat": 44.8418899,
        "lon": -0.5795945,
        "tags": {
            "amenity": "restaurant",
            "cuisine": "french",
            "name": "Le Grand café"
        }
    },
    {
        "type": "node",
        "id": 2868201233,
        "lat": 44.8421928,
        "lon": -0.5715969,
        "tags": {
            "addr:housenumber": "14",
            "addr:postcode": "33000",
            "addr:street": "Cours du Chapeau Rouge",
            "alt_name": "Artis",
            "amenity": "restaurant",
            "name": "Saladerie Artis",
            "takeaway": "yes",
            "website": "http://www.saladerie-artis.fr/"
        }
    },
    {
        "type": "node",
        "id": 2889065742,
        "lat": 44.8302154,
        "lon": -0.5269943,
        "tags": {
            "addr:city": "Floirac",
            "addr:postcode": "33270",
            "addr:street": "Avenue Gaston Cabannes",
            "amenity": "restaurant",
            "cuisine": "pizza",
            "name": "Pizzazap"
        }
    },
    {
        "type": "node",
        "id": 2895814501,
        "lat": 44.8406530,
        "lon": -0.5724190,
        "tags": {
            "amenity": "restaurant",
            "cuisine": "italian",
            "name": "Le Parlament D'Italie",
            "outdoor_seating": "yes"
        }
    },
    {
        "type": "node",
        "id": 2895909901,
        "lat": 44.8407060,
        "lon": -0.5723480,
        "tags": {
            "amenity": "restaurant",
            "cuisine": "italian",
            "name": "Totto",
            "outdoor_seating": "yes"
        }
    },
    {
        "type": "node",
        "id": 2895913001,
        "lat": 44.8409190,
        "lon": -0.5721090,
        "tags": {
            "amenity": "restaurant",
            "name": "L'Ombriere",
            "outdoor_seating": "yes"
        }
    },
    {
        "type": "node",
        "id": 2895917401,
        "lat": 44.8407130,
        "lon": -0.5717170,
        "tags": {
            "amenity": "restaurant",
            "name": "Chez Jean",
            "outdoor_seating": "yes"
        }
    },
    {
        "type": "node",
        "id": 2895923301,
        "lat": 44.8408460,
        "lon": -0.5723890,
        "tags": {
            "amenity": "restaurant",
            "name": "L'Autre Petit Bois"
        }
    },